Name,Latitude,Longitude,Elevation
Mount St. Helens,46.1912,-122.1944,2550
Mount Rainier,46.8523,-121.7603,4392
Mount Hood,45.3735,-121.6959,3426
Mauna Loa,19.4756,-155.6081,4169
Mount Shasta,41.4092,-122.1945,4317
Lassen Peak,40.4871,-121.5044,3187
Crater Lake,42.9446,-122.109,1883
Mount Baker,48.7768,-121.8144,3285
Mount Adams,46.2028,-121.4905,3742
Glacier Peak,48.1125,-121.1137,3213
